3929,N,07953.8938,W,0.14,118.01,041117,,,A*73
$GPVTG,118.01,T,,M,0.14,N,0.26,K,A*35
$GPGGA,160308.000,4126.3929,N,07953.8937,W,1,04,2.04,189.8,M,-33.4,M,,*5C
$GPGSA,A,3,29,13,05,02,,,,,,,,,2.27,2.04,0.99*0D
$GPRMC,160308.000,A,4126.3929,N,07953.8937,W,0.30,90.05,041117,,,A*40
$GPVTG,90.05,T,,M,0.30,N,0.56,K,A*01
$GPGGA,160309.000,4126.3929,N,07953.8936,W,1,04,2.04,189.8,M,-33.4,M,,*5C
$GPGSA,A,3,29,13,05,02,,,,,,,,,2.27,2.04,0.99*0D
$GPRMC,160309.000,A,4126.3929,N,07953.8936,W,0.47,72.22,041117,,,A*49
$GPVTG,72.22,T,,M,0.47,N,0.88,K,A*0B
$GPGGA,160310.000,4126.3930,N,07953.8934,W,1,04,2.04,189.8,M,-33.4,M,,*5E
$GPGSA,A,3,29,13,05,02,,,,,,,,,2.27,2.04,0.99*0D
$GPGSV,4,1,13,05,77,028,31,29,60,294,24,02,50,092,25,20,45,251,20*7B
$GPGSV,4,2,13,13,35,155,25,15,18,188,,25,16,244,,06,11,101,15*73
$GPGSV,4,3,13,21,08,292,,12,06,210,,07,02,058,,26,01,332,*77
$GPGSV,4,4,13,36,,,*7E
$GPRMC,160310.000,A,4126.3930,N,07953.8934,W,0.62,71.70,041117,,,A*48
$GPVTG,71.70,T,,M,0.62,N,1.15,K,A*0D
$GPGGA,160311.000,4126.3935,N,07953.8927,W,1,04,2.04,189.9,M,-33.4,M,,*59
$GPGSA,A,3,29,13,05,02,,,,,,,,,2.27,2.04,0.99*0D
$GPRMC,160311.000,A,4126.3935,N,07953.8927,W,0.69,57.19,041117,,,A*4E
$GPVTG,57.19,T,,M,0.69,N,1.28,K,A*03
$GPGGA,160312.000,4126.3939,N,07953.8922,W,1,04,2.04,190.0,M,-33.4,M,,*52
$GPGSA,A,3,29,13,05,02,,,,,,,,,2.27,2.04,0.99*0D
$GPRMC,160312.000,A,4126.3939,N,07953.8922,W,0.69,48.74,041117,,,A*41
$GPVTG,48.74,T,,M,0.69,N,1.28,K,A*06
$GPGGA,160313.000,4126.3940,N,07953.8917,W,1,04,2.04,190.1,M,-33.4,M,,*5A
$GPGSA,A,3,29,13,05,02,,,,,,,,,2.27,2.04,1.00*0C
$GPRMC,160313.000,A,4126.3940,N,07953.8917,W,0.59,52.88,041117,,,A*43
$GPVTG,52.88,T,,M,0.59,N,1.10,K,A*06
$GPGGA,160314.000,4126.3941,N,07953.8913,W,1,04,2.04,190.1,M,-33.4,M,,*58
$GPGSA,A,3,29,13,05,02,,,,,,,,,2.27,2.04,1.00*0C
$GPRMC,160314.000,A,4126.3941,N,07953.8913,W,0.55,52.27,041117,,,A*48
$GPVTG,52.27,T,,M,0.55,N,1.01,K,A*0F
$GPGGA,160315.000,4126.3942,N,07953.8909,W,1,04,2.04,190.2,M,-33.4,M,,*52
$GPGSA,A,3,29,13,05,02,,,,,,,,,2.27,2.04,1.00*0C
$GPGSV,4,1,13,05,77,028,31,29,60,294,24,02,50,092,25,20,45,251,20*7B
$GPGSV,4,2,13,13,35,155,28,15,18,188,,25,16,244,,06,11,101,14*7F
$GPGSV,4,3,13,21,08,292,,12,06,210,,07,02,058,,26,01,332,*77
$GPGSV,4,4,13,38,,,*70
$GPRMC,160315.000,A,4126.3942,N,07953.8909,W,0.59,52.96,041117,,,A*47
$GPVTG,52.96,T,,M,0.59,N,1.09,K,A*01
$GPGGA,160316.000,4126.3943,N,07953.8905,W,1,04,2.04,190.2,M,-33.4,M,,*5C
$GPGSA,A,3,29,13,05,02,,,,,,,,,2.27,2.04,1.00*0C
$GPRMC,160316.000,A,4126.3943,N,07953.8905,W,0.61,57.27,041117,,,A*4D
$GPVTG,57.27,T,,M,0.61,N,1.13,K,A*0E
$GPGGA,160317.000,4126.3943,N,07953.8912,W,1,04,2.04,190.3,M,-33.4,M,,*5A
$GPGSA,A,3,29,13,05,02,,,,,,,,,2.27,2.04,1.00*0C
$GPRMC,160317.000,A,4126.3943,N,07953.8912,W,0.42,36.01,041117,,,A*48
$GPVTG,36.01,T,,M,0.42,N,0.77,K,A*0F
$GPGGA,160318.000,4126.3942,N,07953.8911,W,1,04,2.04,190.4,M,-33.4,M,,*50
$GPGSA,A,3,29,13,05,02,,,,,,,,,2.27,2.04,1.00*0C
$GPRMC,160318.000,A,4126.3942,N,07953.8911,W,0.28,49.53,041117,,,A*46
$GPVTG,49.53,T,,M,0.28,N,0.51,K,A*08
$GPGGA,160319.000,4126.3942,N,07953.8913,W,1,04,2.04,190.4,M,-33.4,M,,*53
$GPGSA,A,3,29,13,05,02,,,,,,,,,2.27,2.04,1.00*0C
$GPRMC,160319.000,A,4126.3942,N,07953.8913,W,0.19,14.39,041117,,,A*43
$GPVTG,14.39,T,,M,0.19,N,0.34,K,A*0D
$GPGGA,160320.000,4126.3942,N,07953.8914,W,1,04,4.06,190.5,M,-33.4,M,,*5B
$GPGSA,A,3,29,13,05,02,,,,,,,,,10.80,4.06,10.00*06
$GPGSV,4,1,13,05,77,028,32,29,60,294,22,02,50,092,27,20,45,251,20*7C
$GPGSV,4,2,13,13,35,155,30,15,18,188,,25,16,244,,06,11,101,15*77
$GPGSV,4,3,13,21,08,292,,12,06,210,,07,02,058,,26,01,332,*77
$GPGSV,4,4,13,41,,,*7E
$GPRMC,160320.000,A,4126.3942,N,07953.8914,W,0.15,354.26,041117,,,A*7B
$GPVTG,354.26,T,,M,0.15,N,0.28,K,A*35
$GPGGA,160321.000,4126.3943,N,07953.8914,W,1,04,4.05,190.5,M,-33.4,M,,*58
$GPGSA,A,3,29,13,05,02,,,,,,,,,10.79,4.05,10.00*03
$GPRMC,160321.000,A,4126.3943,N,07953.8914,W,0.03,340.64,041117,,,A*7F
$GPVTG,340.64,T,,M,0.03,N,0.06,K,A*3D
$GPGGA,160322.000,4126.3943,N,07953.8914,W,1,04,2.04,190.5,M,-33.4,M,,*5C
$GPGSA,A,3,29,13,05,02,,,,,,,,,2.27,2.04,1.00*0C
$GPRMC,160322.000,A,4126.3943,N,07953.8914,W,0.05,28.34,041117,,,A*42
$GPVTG,28.34,T,,M,0.05,N,0.09,K,A*0C
$GPGGA,160323.000,4126.3943,N,07953.8914,W,1,04,2.04,190.5,M,-33.4,M,,*5D
$GPGSA,A,3,29,13,05,02,,,,,,,,,2.27,2.04,1.00*0C
$GPRMC,160323.000,A,4126.3943,N,07953.8914,W,0.05,2.67,041117,,,A*7D
$GPVTG,2.67,T,,M,0.05,N,0.08,K,A*33
$GPGGA,160324.000,4126.3943,N,07953.8914,W,1,04,4.06,190.5,M,-33.4,M,,*5E
$GPGSA,A,3,29,13,05,02,,,,,,,,,10.81,4.06,10.02*05
$GPRMC,160324.000,A,4126.3943,N,07953.8914,W,0.07,274.13,041117,,,A*78
$GPVTG,274.13,T,,M,0.07,N,0.14,K,A*3C
$GPGGA,160325.000,4126.3943,N,07953.8914,W,1,04,2.04,190.5,M,-33.4,M,,*5B
$GPGSA,A,3,29,13,05,02,,,,,,,,,2.27,2.04,1.00*0C
$GPGSV,4,1,13,05,77,028,32,29,60,294,22,02,50,092,26,20,45,252,19*74
$GPGSV,4,2,13,13,35,155,30,15,18,188,,25,16,244,,06,11,101,14*76
$GPGSV,4,3,13,21,08,292,,12,06,210,,07,02,058,,26,01,332,*77
$GPGSV,4,4,13,43,,,*7C
$GPRMC,160325.000,A,4126.3943,N,07953.8914,W,0.11,230.86,041117,,,A*72
$GPVTG,230.86,T,,M,0.11,N,0.20,K,A*30
$GPGGA,160326.000,4126.3943,N,07953.8914,W,1,04,2.04,190.5,M,-33.4,M,,*58
$GPGSA,A,3,29,13,05,02,,,,,,,,,2.27,2.04,1.00*0C
$GPRMC,160326.000,A,4126.3943,N,07953.8914,W,0.16,249.65,041117,,,A*75
$GPVTG,249.65,T,,M,0.16,N,0.29,K,A*3D
$GPGGA,160327.000,4126.3943,N,07953.8915,W,1,04,2.04,190.5,M,-33.4,M,,*58
$GPGSA,A,3,29,13,05,02,,,,,,,,,2.27,2.04,1.00*0C
$GPRMC,160327.000,A,4126.3943,N,07953.8915,W,0.16,261.55,041117,,,A*7C
$GPVTG,261.55,T,,M,0.16,N,0.29,K,A*34
$GPGGA,160328.000,4126.3943,N,07953.8915,W,1,04,2.04,190.5,M,-33.4,M,,*57
$GPGSA,A,3,29,13,05,02,,,,,,,,,2.27,2.04,1.00*0C
$GPRMC,160328.000,A,4126.3943,N,07953.8915,W,0.19,245.22,041117,,,A*7A
$GPVTG,245.22,T,,M,0.19,N,0.36,K,A*33
$GPGGA,160329.000,4126.3943,N,07953.8916,W,1,04,2.04,190.5,M,-33.4,M,,*55
$GPGSA,A,3,29,13,05,02,,,,,,,,2.27,2.04,1.00*0C
$GPRMC,160329.000,A,4126.3943,N,07953.8916,W,0.25,238.31,041117,,,A*7F
$GPVTG,238.31,T,,M,0.25,N,0.46,K,A*33
$GPGGA,160330.000,4126.3942,N,07953.8917,W,1,04,2.04,190.5,M,-33.4,M,,*5D
$GPGSA,A,3,29,13,05,02,,,,,,,,,2.27,2.04,1.00*0C
$GPGSV,4,1,13,05,77,028,32,29,60,293,22,02,50,092,24,20,45,252,19*71
$GPGSV,4,2,13,13,35,155,31,15,18,188,,25,16,244,,06,11,101,16*75
$GPGSV,4,3,13,21,08,292,,12,06,210,,07,02,058,,26,01,332,*77
$GPGSV,4,4,13,43,,,*7C
$GPRMC,160330.000,A,4126.3942,N,07953.8917,W,0.33,223.62,041117,,,A*7C
$GPVTG,223.62,T,,M,0.33,N,0.61,K,A*3D
$GPGGA,160331.000,4126.3941,N,07953.8917,W,1,04,2.04,190.5,M,-33.4,M,,*5F
$GPGSA,A,3,29,13,05,02,,,,,,,,,2.27,2.04,1.00*0C
$GPRMC,160331.000,A,4126.3941,N,07953.8917,W,0.30,226.02,041117,,,A*7E
$GPVTG,226.02,T,,M,0.30,N,0.55,K,A*3A
$GPGGA,160332.000,4126.3941,N,07953.8918,W,1,04,2.04,190.5,M,-33.4,M,,*53
$GPGSA,A,3,29,13,05,02,,,,,,,,,2.27,2.04,1.00*0C
$GPRMC,160332.000,A,4126.3941,N,07953.8918,W,0.27,226.05,041117,,,A*73
$GPVTG,226.05,T,,M,0.27,N,0.51,K,A*3F
$GPGGA,160333.000,4126.3940,N,07953.8919,W,1,04,2.04,190.5,M,-33.4,M,,*52
$GPGSA,A,3,29,13,05,02,,,,,,,,,2.27,2.04,1.00*0C
$GPRMC,160333.000,A,4126.3940,N,07953.8919,W,0.21,232.71,041117,,,A*72
$GPVTG,232.71,T,,M,0.21,N,0.39,K,A*31
$GPGGA,160334.000,4126.3940,N,07953.8919,W,1,04,2.04,190.5,M,-33.4,M,,*55
$GPGSA,A,3,29,13,05,02,,,,,,,,,2.27,2.04,1.00*0C
$GPRMC,160334.000,A,4126.3940,N,07953.8919,W,0.16,224.99,041117,,,A*70
$GPVTG,224.99,T,,M,0.16,N,0.30,K,A*3D
$GPGGA,160335.000,4126.3940,N,07953.8920,W,1,04,2.04,190.5,M,-33.4,M,,*5E
$GPGSA,A,3,29,13,05,02,,,,,,,,,2.27,2.04,1.00*0C
$GPGSV,4,1,13,05,77,028,32,29,60,293,21,02,50,092,23,20,45,252,19*75
$GPGSV,4,2,13,13,35,155,31,15,18,188,,25,16,244,,06,11,101,15*76
$GPGSV,4,3,13,21,08,292,,12,06,210,,07,02,058,,26,01,332,*77
$GPGSV,4,4,13,45,,,*7A
$GPRMC,160335.000,A,4126.3940,N,07953.8920,W,0.12,249.96,041117,,,A*7B
$GPVTG,249.96,T,,M,0.12,N,0.22,K,A*3E
$GPGGA,160336.000,4126.3940,N,07953.8920,W,1,04,2.04,190.5,M,-33.4,M,,*5D
$GPGSA,A,3,29,13,05,02,,,,,,,,,2.27,2.04,1.00*0C
$GPRMC,160336.000,A,4126.3940,N,07953.8920,W,0.18,316.68,041117,,,A*78
$GPVTG,316.68,T,,M,0.18,N,0.33,K,A*3E
$GPGGA,160337.000,4126.3940,N,07953.8921,W,1,04,2.04,190.5,M,-33.4,M,,*5D
$GPGSA,A,3,29,13,05,02,,,,,,,,,2.27,2.04,1.00*0C
$GPRMC,160337.000,A,4126.3940,N,07953.8921,W,0.14,354.15,041117,,,A*78
$GPVTG,354.15,T,,M,0.14,N,0.27,K,A*3B
$GPGGA,160338.000,4126.3941,N,07953.8921,W,1,04,4.07,190.5,M,-33.4,M,,*56
$GPGSA,A,3,29,13,05,02,,,,,,,,,10.90,4.07,10.11*06
$GPRMC,160338.000,A,4126.3941,N,07953.8921,W,0.14,3.88,041117,,,A*73
$GPVTG,3.88,T,,M,0.14,N,0.27,K,A*3E
$GPGGA,160339.000,4126.3941,N,07953.8920,W,1,04,4.07,190.5,M,-33.4,M,,*56
$GPGSA,A,3,29,13,05,02,,,,,,,,,10.90,4.07,10.11*06
$GPRMC,160339.000,A,4126.3941,N,07953.8920,W,0.16,33.36,041117,,,A*47
$GPVTG,33.36,T,,M,0.16,N,0.29,K,A*04
$GPGGA,160340.000,4126.3941,N,07953.8920,W,1,04,2.04,190.5,M,-33.4,M,,*5D
$GPGSA,A,3,29,13,05,02,,,,,,,,,2.27,2.04,1.00*0C
$GPGSV,4,1,13,05,77,028,32,29,60,293,21,02,50,092,24,20,45,252,18*73
$GPGSV,4,2,13,13,35,155,31,15,18,188,,25,16,244,,06,11,101,15*76
$GPGSV,4,3,13,21,08,292,,12,06,210,,07,02,058,,26,01,332,*77
$GPGSV,4,4,13,46,,,*79
$GPRMC,160340.000,A,4126.3941,N,07953.8920,W,0.09,92.57,041117,,,A*4B
$GPVTG,92.57,T,,M,0.09,N,0.17,K,A*0B
$GPGGA,160341.000,4126.3941,N,07953.8920,W,1,04,2.04,190.5,M,-33.4,M,,*5C
$GPGSA,A,3,29,13,05,02,,,,,,,,,2.27,2.04,1.00*0C
$GPRMC,160341.000,A,4126.3941,N,07953.8920,W,0.07,6.16,041117,,,A*7C
$GPVTG,6.16,T,,M,0.07,N,0.14,K,A*3E
$GPGGA,160342.000,4126.3942,N,07953.8920,W,1,04,4.08,190.5,M,-33.4,M,,*56
$GPGSA,A,3,29,13,05,02,,,,,,,,,10.92,4.08,10.13*09
$GPRMC,160342.000,,4126.3942,N,07953.8920,W,0.02,104.30,041117,,,A*7E
$GPVTG,104.30,T,,M,0.02,N,0.04,K,A*3D
$GPGGA,160343.000,4126.3942,N,07953.8920,W,1,04,2.04,190.5,M,-33.4,M,,*5D
$GPGSA,A,3,29,13,05,02,,,,,,,,,2.27,2.04,1.00*0C
$GPRMC,160343.000,A,4126.3942,N,07953.8920,W,0.03,156.16,041117,,,A*7D
$GPVTG,156.16,T,,M,0.03,N,0.05,K,A*3E
$GPGGA,160344.000,4126.3942,N,07953.8920,W,1,04,2.04,190.5,M,-33.4,M,,*5A
$GPGSA,A,3,29,13,05,02,,,,,,,,,2.27,2.04,1.00*0C
$GPRMC,160344.000,A,4126.3942,N,07953.8920,W,0.04,33.81,041117,,,A*41
$GPVTG,33.81,T,,M,0.04,N,0.08,K,A*08
$GPGGA,160345.000,4126.3942,N,07953.8919,W,1,04,2.04,190.5,M,-33.4,M,,*51
$GPGSA,A,3,29,13,05,02,,,,,,,,,2.27,2.04,1.00*0C
$GPGSV,4,1,13,05,77,029,32,29,60,293,19,02,50,092,24,20,45,252,18*79
$GPGSV,4,2,13,13,35,155,31,15,18,188,,25,16,244,,06,11,102,15*75
$GPGSV,4,3,13,21,08,292,,12,06,210,,07,02,058,,26,01,332,*77
$GPGSV,4,4,13,47,,,*78
$GPRMC,160345.000,A,4126.3942,N,07953.8919,W,0.06,7.79,041117,,,A*78
$GPVTG,7.79,T,,M,0.06,N,0.11,K,A*32
$GPGGA,160346.000,4126.3942,N,07953.8919,W,1,04,4.08,190.5,M,-33.4,M,,*58
$GPGSA,A,3,29,13,05,02,,,,,,,,,10.94,4.08,10.16*0A
$GPRMC,160346.000,A,4126.3942,N,07953.8919,W,0.10,256.02,041117,,,A*76
$GPVTG,256.02,T,,M,0.10,N,0.18,K,A*36
$GPGGA,160347.000,4126.3942,N,07953.8920,W,1,04,2.04,190.5,M,-33.4,M,,*59
$GPGSA,A,3,29,13,05,02,,,,,,,,,2.27,2.04,1.00*0C
$GPRMC,160347.000,A,4126.3942,N,07953.8920,W,0.14,277.61,041117,,,A*7F
$GPVTG,277.61,T,,M,0.14,N,0.25,K,A*3A
$GPGGA,160348.000,4126.3942,N,07953.8920,W,1,04,2.04,190.5,M,-33.4,M,,*56
$GPGSA,A,3,29,13,05,02,,,,,,,,,2.27,2.04,1.00*0C
$GPRMC,160348.000,A,4126.3942,N,07953.8920,W,0.19,310.58,041117,,,A*77
$GPVTG,310.58,T,,M,0.19,N,0.36,K,A*3F
$GPGGA,160349.000,4126.3942,N,07953.8921,W,1,04,2.04,190.5,M,-33.4,M,,*56
$GPGSA,A,3,29,13,05,02,,,,,,,,,2.27,2.04,1.00*0C
$GPRMC,160349.000,A,4126.3942,N,07953.8921,W,0.18,308.96,041117,,,A*7D
$GPVTG,308.96,T,,M,0.18,N,0.33,K,A*30
$GPGGA,160350.000,4126.3942,N,07953.8921,W,1,04,2.04,190.5,M,-33.4,M,,*5E
$GPGSA,A,3,29,13,05,02,,,,,,,,,2.27,2.04,1.00*0C
$GPGSV,4,1,13,05,77,029,31,29,60,293,21,02,50,092,25,20,45,252,17*7F
$GPGSV,4,2,13,13,35,155,28,15,18,188,,25,16,244,,06,11,102,14*7C
$GPGSV,4,3,13,21,08,292,,12,06,210,,07,02,058,,26,01,332,*77
$GPGSV,4,4,13,47,,,*78
$GPRMC,160350.000,A,4126.3942,N,07953.8921,W,0.16,262.71,041117,,,A*7F
$GPVTG,262.71,T,,M,0.16,N,0.30,K,A*39
$GPGGA,160351.000,4126.3942,N,07953.8922,W,1,04,2.04,190.5,M,-33.4,M,,*5C
$GPGSA,A,3,29,13,05,02,,,,,,,,,2.27,2.04,1.00*0C
$GPRMC,16031.000,A,4126.3942,N,07953.8922,W,0.21,222.18,041117,,,A*72
$GPVTG,222.18,T,,M,0.21,N,0.39,K,A*3F
$GPGGA,160352.000,4126.3942,N,07953.8922,W,1,04,2.04,190.5,M,-33.4,M,,*5F
$GPGSA,A,3,29,13,05,02,,,,,,,,,2.27,2.04,1.00*0C
$GPRMC,160352.000,A,4126.3942,N,07953.8922,W,0.25,204.62,041117,,,A*7C
$GPVTG,204.62,T,,M,0.25,N,0.46,K,A*3A
$GPGGA,160353.000,4126.3941,N,07953.8923,W,1,04,2.04,190.5,M,-33.4,M,,*5C
$GPGSA,A,3,29,13,05,02,,,,,,,,,2.27,2.04,1.00*0C
$GPRMC,160353.000,A,4126.3941,N,07953.8923,W,0.35,207.19,041117,,,A*71
$GPVTG,207.19,T,,M,0.35,N,0.65,K,A*35
$GPGGA,160354.000,4126.3940,N,07953.8924,W,1,04,2.04,190.5,M,-33.4,M,,*5D
$GPGSA,A,3,29,13,05,02,,,,,,,,,2.27,2.04,1.00*0C
$GPRMC,160354.000,A,4126.3940,N,07953.8924,W,0.48,227.73,041117,,,A*74
$GPVTG,227.73,T,,M,0.48,N,0.89,K,A*33
$GPGGA,160355.000,4126.3940,N,07953.8925,W,1,04,2.04,190.5,M,-33.4,M,,*5D
$GPGSA,A,3,29,13,05,02,,,,,,,,,2.27,2.04,1.00*0C
$GPGSV,4,1,13,05,77,029,31,29,60,293,26,02,50,092,27,20,45,252,16*7B
$GPGSV,4,2,13,3,35,155,26,15,19,188,,25,16,244,,06,11,102,16*71
$GPGSV,4,3,13,21,08,292,,12,06,210,,07,02,058,,26,01,332,*77
$GPGSV,4,4,13,49,,,*76
$GPRMC,160355.000,A,4126.3940,N,07953.8925,W,0.41,215.97,041117,,,A*76
$GPVTG,215.97,T,,M,0.41,N,0.76,K,A*31
$GPGGA,160356.000,4126.3939,N,07953.8925,W,1,04,2.04,190.5,M,-33.4,M,,*50
$GPGSA,A,3,29,13,05,02,,,,,,,,,2.27,2.04,1.00*0C
$GPRMC,160356.000,A,4126.3939,N,07953.8925,W,0.37,206.31,041117,,,A*74
$GPVTG,206.31,T,,M,0.37,N,0.69,K,A*30
$GPGGA,160357.000,4126.3938,N,07953.8926,W,1,04,2.04,190.5,M,-33.4,M,,*53
$GPGSA,A,3,29,13,05,02,,,,,,,,,2.27,2.04,1.00*0C
$GPRMC,160357.000,A,4126.3938,N,07953.8926,W,0.29,188.34,041117,,,A*78
$GPVTG,188.34,T,,M,0.29,N,0.54,K,A*31
$GPGGA,160358.000,4126.3937,N,07953.8926,W,1,04,2.04,190.5,M,-33.4,M,,*53
$GPGSA,A,3,29,13,05,02,,,,,,,,,2.27,2.04,1.00*0C
$GPRMC,160358.000,A,4126.3937,N,07953.8926,W,0.34,206.05,041117,,,A*73
$GPVTG,206.05,T,,M,0.34,N,0.63,K,A*3E
$GPGGA,160359.000,4126.3936,N,07953.8927,W,1,04,2.04,190.5,M,-33.4,M,,*52
$GPGSA,A,3,29,13,05,02,,,,,,,,,2.27,2.04,1.00*0C
$GPRMC,160359.000,A,4126.3936,N,07953.8927,W,0.48,212.64,041117,,,A*7B
$GPVTG,212.64,T,,M,0.48,N,0.89,K,A*33
$GPGGA,160400.000,4126.3935,N,07953.8927,W,1,04,2.04,190.5,M,-33.4,M,,*5A
$GPGSA,A,3,29,13,05,02,,,,,,,,,2.27,2.04,1.00*0C
$GPGSV,4,1,13,05,77,029,31,29,60,293,26,02,50,092,27,20,45,252,16*7B
$GPGSV,4,2,13,13,35,155,25,51,34,218,,15,19,188,,25,16,244,*78
$GGSV,4,3,13,06,11,102,16,21,08,292,,12,06,210,,07,02,058,*72
$GPGSV,4,4,13,26,01,332,*4C
$GPRMC,160400.000,A,4126.3935,N,07953.8927,W,0.39,217.77,041117,,,A*72
$GPVTG,217.77,T,,M,0.39,N,0.73,K,A*37
$GPGGA,160401.000,4126.3934,N,07953.8928,W,1,04,2.04,190.5,M,-33.4,M,,*55
$GPGSA,A,3,29,13,05,02,,,,,,,,,2.27,2.04,1.00*0C
$GPRMC,160401.000,A,4126.3934,N,07953.8928,W,0.38,221.54,041117,,,A*78
$GPVTG,221.54,T,,M,0.38,N,0.70,K,A*31
$GPGGA,160402.000,4126.3933,N,07953.8929,W,1,04,2.04,190.5,M,-33.4,M,,*50
$GPGSA,A,3,29,13,05,02,,,,,,,,,2.27,2.04,1.00*0C
$GPRMC,160402.000,A,4126.3933,N,07953.8929,W,0.38,211.54,041117,,,A*7E
$GPVTG,211.54,T,,M,0.38,N,0.71,K,A*33
$GPGGA,160403.000,4126.3932,N,07953.8930,W,1,04,2.04,190.5,M,-33.4,M,,*58
$GPGSA,A,3,29,13,05,02,,,,,,,,,2.27,2.04,1.00*0C
$GPRMC,160403.000,A,4126.3932,N,07953.8930,W,0.30,213.59,041117,,,A*71
$GPVTG,213.59,T,,M,0.30,N,0.56,K,A*31
$GPGGA,160404.000,4126.3932,N,07953.8930,W,1,04,2.04,190.5,M,-33.4,M,,*5F
$GPGSA,A,3,29,13,05,02,,,,,,,,,2.27,2.04,1.00*0C
$GPRMC,160404.000,A,4126.3932,N,07953.8930,W,0.16,208.64,041117,,,A*76
$GPVTG,208.64,T,,M,0.16,N,0.30,K,A*31
$GPGGA,160405.000,4126.3931,N,07953.8930,W,1,04,2.04,190.5,M,-33.4,M,,*5D
$GPGSA,A,3,29,13,05,02,,,,,,,,,2.27,2.04,1.00*0C
$GPGSV,4,1,13,05,77,029,31,29,60,293,26,02,50,092,27,20,45,252,16*7B
$GPGSV,4,2,13,13,35,155,25,51,34,218,,15,19,188,,25,16,244,*78
$GPGSV,4,3,13,06,11,102,14,21,08,292,,12,06,210,,07,02,058,*70
$GPGSV,4,4,13,26,01,332,*4C
$GPRMC,160405.000,A,4126.3931,N,07953.890,W,0.20,128.98,041117,,,A*73
$GPVTG,128.98,T,,M,0.20,N,0.38,K,A*3E
$GPGGA,160406.000,4126.3931,N,07953.8930,W,1,04,2.04,190.5,M,-33.4,M,,*5E
$GPGSA,A,3,29,13,05,02,,,,,,,,,2.27,2.04,1.00*0C
$GPRMC,160406.000,A,4126.3931,N,07953.8930,W,0.23,79.90,041117,,,A*4E
$GPVTG,79.90,T,,M,0.23,N,0.42,K,A*0D
$GPGGA,160407.000,4126.3931,N,07953.8929,W,1,04,2.04,190.5,M,-33.4,M,,*57
$GPGSA,A,3,29,13,05,02,,,,,,,,,2.27,2.04,1.00*0C
$GPRMC,160407.000,A,4126.3931,N,07953.8929,W,0.21,69.51,041117,,,A*49
$GPVTG,69.51,T,,M,0.21,N,0.40,K,A*01
$GPGGA,160408.000,4126.3931,N,07953.8928,W,1,04,2.04,190.5,M,-33.4,M,,*59
$GPGSA,A,3,29,13,05,02,,,,,,,,,2.27,2.04,1.00*0C
$GPRMC,160408.000,A,4126.3931,N,07953.8928,W,0.04,29.33,041117,,,A*40
$GPVTG,29.33,T,,M,0.04,N,0.07,K,A*05
$GPGGA,160409.000,4126.3931,N,07953.8928,W,1,04,2.04,190.5,M,-33.4,M,,*58
$GPGSA,A,3,29,13,05,02,,,,,,,,,2.27,2.04,1.00*0C
$GPRMC,160409.000,A,4126.3931,N,07953.8928,W,0.08,274.94,041117,,,A*7A
$GPVTG,274.94,T,,M,0.08,N,0.16,K,A*3E
$GPGGA,160410.000,4126.3931,N,07953.8928,W,1,04,2.04,190.5,M,-33.4,M,,*50
$GPGSA,A,3,29,13,05,02,,,,,,,,,2.27,2.04,1.00*0C
$GPGSV,4,1,13,05,77,029,31,29,60,293,27,02,50,092,28,20,45,252,16*75
$GPGSV,4,2,13,13,35,155,25,15,19,188,,48,18,243,,25,16,244,*70
$GPGSV,4,3,13,06,11,102,14,21,08,292,,12,06,210,,07,02,058,*70
$GPGSV,4,4,13,26,01,332,*4C
$GPRMC,160410.000,A,4126.3931,N,07953.8928,W,0.05,291.91,041117,,,A*71
$GPVTG,291.91,T,,M,0.05,N,0.08,K,A*32
$GPGGA,160411.000,4126.3931,N,07953.8928,W,1,04,2.04,190.5,M,-33.4,M,,*51
$GPGSA,A,3,29,13,05,02,,,,,,,,,2.27,2.04,1.00*0C
$GPRMC,160411.000,A,4126.3931,N,07953.8928,W,0.07,212.77,041117,,,A*71
$GPVTG,212.77,T,,M,0.07,N,0.13,K,A*39
$GPGGA,160412.000,4126.3931,N,07953.8928,W,1,04,2.04,190.5,M,-33.4,M,,*52
$GPGSA,A,3,29,13,05,02,,,,,,,,,2.27,2.04,1.00*0C
$GPRMC,160412.000,A,4126.3931,N,07953.8928,W,0.08,179.52,041117,,,A*74
$GPVTG,179.52,T,,M,0.08,N,0.15,K,A*39
$GPGGA,160413.000,4126.3931,N,07953.8928,W,1,04,2.04,190.5,M,-33.4,M,,*53
$GPGSA,A,3,29,13,05,02,,,,,,,,,2.27,2.04,1.00*0C
$GPRMC,160413.000,A,4126.3931,N,07953.8928,W,0.19,229.95,041117,,,A*78
$GPVTG,229.95,T,,M,0.19,N,0.35,K,A*36
$GPGGA,160414.000,4126.3931,N,07953.8929,W,1,04,2.04,190.5,M,-33.4,M,,*55
$GPGSA,A,3,29,13,05,02,,,,,,,,,2.27,2.04,1.00*0C
$GPRMC,160414.000,A,4126.3931,N,07953.8929,W,0.20,206.79,041117,,,A*7B
$GPVTG,206.79,T,,M,0.20,N,0.37,K,A*31
$GPGGA,160415.000,4126.3930,N,07953.8929,W,1,04,2.04,190.5,M,-33.4,M,,*55
$GPGSA,A,3,29,13,05,02,,,,,,,,,2.27,2.04,1.00*0C
$GPGSV,4,1,13,05,77,029,30,29,60,293,26,02,50,092,29,20,45,252,16*74
$GPGSV,4,2,13,13,35,155,26,15,19,188,23,25,16,244,,06,11,102,*77
$GPGSV,4,3,13,33,10,107,,21,08,292,,12,06,210,,07,02,058,*77
$GPGSV,4,4,13,26,01,332,*4C
$GPRMC,160415.000,A,4126.3930,N,07953.8929,W,0.19,235.53,041117,,,A*79
$GPVTG,235.53,T,,M,0.19,N,0.35,K,A*31
$GPGGA,160416.000,4126.3930,N,07953.8930,W,1,04,2.04,190.5,M,-33.4,M,,*5E
$GPGSA,A,3,29,13,05,02,,,,,,,,,2.27,2.04,1.00*0C
$GPRMC,160416.000,A,4126.3930,N,07953.8930,W,0.12,231.26,041117,,,A*7F
$GPVTG,231.26,T,,M,0.12,N,0.21,K,A*39
$GPGGA,160417.000,4126.3930,N,07953.8930,W,1,04,2.04,190.5,M,-33.4,M,,*5F
$GPGSA,A,3,29,13,05,02,,,,,,,,,2.27,2.04,1.00*0C
$GPRMC,160417.000,A,4126.3930,N,07953.8930,W,0.06,191.02,041117,,,A*74
$GPVTG,191.02,T,,M,0.06,N,0.10,K,A*31
$GPGGA,160418.000,4126.3930,N,07953.8930,W,1,04,2.04,190.5,M,-33.4,M,,*50
$GPGSA,A,3,29,13,05,02,,,,,,,,,2.27,2.04,1.00*0C
$GPRMC,160418.000,A,4126.3930,N,07953.8930,W,0.03,74.12,041117,,,A*45
$GPVTG,74.12,T,,M,0.03,N,0.05,K,A*0B
$GPGGA,160419.000,4126.3930,N,07953.8930,W,1,04,2.04,190.5,M,-33.4,M,,*51
$GPGSA,A,3,29,13,05,02,,,,,,,,,2.27,2.04,1.00*0C
$GPRMC,160419.000,A,4126.3930,N,07953.8930,W,0.12,215.01,041117,,,A*73
$GPVTG,215.01,T,,M,0.12,N,0.23,K,A*38
$GPGGA,160420.000,4126.3929,N,07953.8930,W,1,04,2.04,190.5,M,-33.4,M,,*53
$GPGSA,A,3,29,13,05,02,,,,,,,,2.27,2.04,1.00*0C
$GPGSV,4,1,13,05,77,029,29,29,60,293,24,02,50,092,30,20,45,252,16*76
$GPGSV,4,2,13,13,35,155,26,15,19,188,22,25,16,244,,06,11,102,*76
$GPGSV,4,3,13,33,10,107,,21,08,292,,12,06,210,,07,02,058,*77
$GPGSV,4,4,13,26,01,332,*4C
$GPRMC,160420.000,A,4126.3929,N,07953.8930,W,0.16,186.06,041117,,,A*7B
$GPVTG,186.06,T,,M,0.16,N,0.30,K,A*30
$GPGGA,160421.000,4126.3929,N,07953.8930,W,1,04,2.04,190.5,M,-33.4,M,,*52
$GPGSA,A,3,29,13,05,02,,,,,,,,,2.27,2.04,1.00*0C
$GPRMC,160421.000,A,4126.3929,N,07953.8930,W,0.28,209.49,041117,,,A*78
$GPVTG,209.49,T,,M,0.28,N,0.51,K,A*35
$GPGGA,160422.000,4126.3928,N,07953.8931,W,1,04,2.04,190.5,M,-33.4,M,,*51
$GPGSA,A,3,29,13,05,02,,,,,,,,,2.27,2.04,1.00*0C
$GPRMC,160422.000,A,4126.3928,N,07953.8931,W,0.34,212.46,041117,,,A*73
$GPVTG,212.46,T,,M,0.34,N,0.63,K,A*3C
$GPGGA,160423.000,4126.3927,N,07953.8932,W,1,04,2.04,190.5,M,-33.4,M,,*5C
$GPGSA,A,3,29,13,05,02,,,,,,,,,2.27,2.04,1.00*0C
$GPRMC,160423.000,A,4126.3927,N,07953.8932,W,0.28,197.95,041117,,,A*73
$GPVTG,197.95,T,,M,0.28,N,0.52,K,A*33
$GPGGA,160424.000,4126.3927,N,07953.8932,W,1,04,2.04,190.5,M,-33.4,M,,*5B
$GPGSA,A,3,29,13,05,02,,,,,,,,,2.27,2.04,1.00*0C
$GPRMC,160424.000,A,4126.3927,N,07953.8932,W,0.26,159.86,041117,,,A*7A
$GPVTG,159.86,T,,M,0.26,N,0.49,K,A*37
$GPGGA,160425.000,4126.3926,N,07953.8931,W,1,04,2.04,190.5,M,-33.4,M,,*58
$GPGSA,A,3,29,13,05,02,,,,,,,,,2.27,2.04,1.00*0C
$GPGSV,4,1,13,05,77,029,29,29,60,293,27,02,50,092,30,20,45,252,18*7B
$GPGSV,4,2,13,13,36,155,26,15,19,188,21,25,16,244,,06,11,102,*76
$GPGSV,4,3,13,21,08,292,,12,06,210,,07,02,058,,26,01,332,*77
$GPGSV,4,4,13,34,,,*7C
$GPRMC,160425.000,A,4126.3926,N,07953.8931,W,0.20,159.35,041117,,,A*77
$GPVTG,159.35,T,,M,0.20,N,0.38,K,A*3F
$GPGGA,160426.000,4126.3926,N,07953.8931,W,1,04,2.04,190.5,M,-33.4,M,,*5B
$GPGSA,A,3,29,13,05,02,,,,,,,,,2.27,2.04,1.00*0C
$GPRMC,160426.000,A,4126.3926,N,07953.8931,W,0.24,168.04,041117,,,A*70
$GPVTG,168.04,T,,M,0.24,N,0.44,K,A*30
$GPGGA,160427.000,4126.3925,N,07953.8931,W,1,04,2.04,190.5,M,-33.4,M,,*59
$GPGSA,A,3,29,13,05,02,,,,,,,,,2.27,2.04,1.00*0C
$GPRMC,160427.000,A,4126.3925,N,07953.8931,W,0.31,142.44,041117,,,A*7A
$GPVTG,142.44,T,,M,0.31,N,0.57,K,A*3A
$GPGGA,160428.000,4126.3924,N,07953.8930,W,1,04,2.04,190.5,M,-33.4,M,,*56
$GPGSA,A,3,29,13,05,02,,,,,,,,,2.27,2.04,1.00*0C
$GPRMC,160428.000,A,4126.3924,N,07953.8930,W,0.31,147.31,041117,,,A*72
$GPVTG,147.31,T,,M,0.31,N,0.58,K,A*32
$GPGGA,160429.000,4126.3924,N,07953.8929,W,1,04,2.04,190.5,M,-33.4,M,,*5F
$GPGSA,A,3,29,13,05,02,,,,,,,,,2.27,2.04,1.00*0C
$GPRMC,160429.000,A,4126.3924,N,07953.8929,W,0.31,142.61,041117,,,A*7B
$GPVTG,142.61,T,,M,0.31,N,0.57,K,A*3D
$GPGGA,160430.000,4126.3923,N,07953.8928,W,1,04,2.04,190.5,M,-33.4,M,,*51
$GPGSA,A,3,29,13,05,02,,,,,,,,,2.27,2.04,1.00*0C
$GPGSV,4,1,13,05,77,029,29,29,60,293,27,02,50,092,30,20,45,252,19*7A
$GPGSV,4,2,13,13,36,155,25,15,19,188,20,25,16,244,,06,11,102,*74
$GPGSV,4,3,13,21,08,292,,12,06,210,,07,02,058,,26,01,332,*77
$GPGSV,4,4,13,35,,,*7D
$GPRMC,160430.000,A,4126.3923,N,07953.8928,W,0.21,135.63,041117,,,A*76
$GPVTG,135.63,T,,M,0.21,N,0.38,K,A*37
$GPGGA,160431.000,4126.3923,N,07953.8928,W,1,04,2.04,190.5,M,-33.4,M,,*50
$GPGSA,A,3,29,13,05,02,,,,,,,,,2.27,2.04,1.00*0C
$GPRMC,160431.000,A,4126.3923,N,07953.8928,W,0.14,131.72,041117,,,A*75
$GPVTG,131.72,T,,M,0.14,N,0.26,K,A*3A
$GPGGA,160432.000,4126.3922,N,07953.8928,W,1,04,2.04,190.5,M,-33.4,M,,*52
$GPGSA,A,3,29,13,05,02,,,,,,,,,2.27,2.04,1.00*0C
$GPRMC,160432.000,A,4126.3922,N,07953.8928,W,0.11,94.95,041117,,,A*45
$GPVTG,94.95,T,,M,0.11,N,0.21,K,A*0F
$GPGGA,160433.000,4126.3922,N,07953.8927,W,1,04,2.04,190.5,M,-33.4,M,,*5C
$GPGSA,A,3,29,13,05,02,,,,,,,,,2.27,2.04,1.00*0C
$GPRMC,160433.000,A,4126.3922,N,07953.8927,W,0.11,99.32,041117,,,A*4B
$GPVTG,99.32,T,,M,0.11,N,0.21,K,A*0F
$GPGGA,160434.000,4126.3922,N,07953.8927,W,1,04,2.04,190.5,M,-33.4,M,,*5B
$GPGSA,A,3,29,13,05,02,,,,,,,,,2.27,2.04,1.00*0C
$GPRMC,160434.000,A,4126.3922,N,07953.8927,W,0.09,270.30,041117,,,A*72
$GPVTG,270.30,T,,M,0.09,N,0.16,K,A*35
$GPGGA,160435.000,4126.3922,N,07953.8927,W,1,04,2.04,190.5,M,-33.4,M,,*5A
$GPGSA,A,3,29,13,05,02,,,,,,,,,2.27,2.04,1.00*0C
$GPGSV,4,1,13,05,77,029,29,29,60,293,25,02,50,092,29,20,46,252,20*79
$GPGSV,4,2,13,13,36,155,25,15,19,188,20,25,16,244,,06,11,102,*74
$GPGSV,4,3,13,21,08,293,,12,06,210,,07,02,058,,26,01,332,*76
$GPGSV,4,4,13,35,,,*7D
$GPRMC,160435.000,A,4126.3922,N,07953.8927,W,0.03,270.32,041117,,,A*7B
$GPVTG,270.32,T,,M,0.03,N,0.05,K,A*3F
$GPGGA,160436.000,4126.3922,N,07953.8927,W,1,04,2.04,190.5,M,-33.4,M,,*59
$GPGSA,A,3,29,13,05,02,,,,,,,,,2.27,2.04,1.00*0C
$GPRMC,160436.000,A,4126.3922,N,07953.8927,W,0.07,39.39,041117,,,A*48
$GPVTG,39.39,T,,M,0.07,N,0.13,K,A*08
$GPGGA,160437.000,4126.3922,N,07953.8927,W,1,04,2.04,190.5,M,-33.4,M,,*58
$GPGSA,A,3,29,13,05,02,,,,,,,,,2.27,2.04,1.00*0C
$GPRMC,160437.000,A,4126.3922,N,07953.8927,W,0.15,77.13,041117,,,A*48
$GPVTG,77.13,T,,M,0.15,N,0.28,K,A*01
$GPGGA,160438.000,4126.3923,N,07953.8926,W,1,04,2.04,190.5,M,-33.4,M,,*57
$GPGSA,A,3,29,13,05,02,,,,,,,,,2.27,2.04,1.00*0C
$GPRMC,160438.000,A,4126.3923,N,07953.8926,W,0.17,90.19,041117,,,A*46
$GPVTG,90.19,T,,M,0.17,N,0.32,K,A*0B
$GPGGA,160439.000,4126.3923,N,07953.8925,W,1,04,2.04,190.5,M,-33.4,M,,*55
$GPGSA,A,3,29,13,05,02,,,,,,,,,2.27,2.04,1.00*0C
$GPRMC,160439.000,A,4126.3923,N,07953.8925,W,0.13,63.38,041117,,,A*4F
$GPVTG,63.38,T,,M,0.13,N,0.24,K,A*07
$GPGGA,160440.000,4126.3923,N,07953.8925,W,1,04,2.04,190.5,M,-33.4,M,,*5B
$GPGSA,A,3,29,13,05,02,,,,,,,,,2.27,2.04,1.00*0C
$GPGSV,4,1,13,05,77,029,29,29,61,292,26,02,50,092,28,20,46,252,19*71
$GPGSV,4,2,13,13,36,155,25,15,19,188,20,25,16,244,,06,11,102,16*73
$GPGSV,4,3,13,21,08,293,,12,06,210,,07,02,058,,26,02,331,*76
$GPGSV,4,4,13,36,,,*7E
$GPRMC,160440.000,A,4126.3923,N,07953.8925,W,0.22,40.66,041117,,,A*49
$GPVTG,40.66,T,,M,0.22,N,0.41,K,A*0C
$GPGGA,160441.000,4126.3923,N,07953.8924,W,1,04,2.04,190.5,M,-33.4,M,,*5B
$GPGSA,A,3,29,13,05,02,,,,,,,,,2.27,2.04,1.00*0C
$GPRMC,160441.000,A,4126.3923,N,07953.8924,W,0.24,40.96,041117,,,A*40
$GPVTG,40.96,T,,M,0.24,N,0.45,K,A*01
$GPGGA,160442.000,4126.3924,N,07953.8924,W,1,04,2.04,190.5,M,-33.4,M,,*5F
$GPGSA,A,3,29,13,05,02,,,,,,,,,2.27,2.04,1.00*0C
$GPRMC,160442.000,A,4126.3924,N,07953.8924,W,0.04,111.30,041117,,,A*7F
$GPVTG,111.30,T,,M,0.04,N,0.08,K,A*33
$GPGGA,160443.000,4126.3924,N,07953.8923,W,1,04,2.04,190.5,M,-33.4,M,,*59
$GPGSA,A,3,29,13,05,02,,,,,,,,,2.27,2.04,1.00*0C
$GPRMC,160443.000,A,4126.3924,N,07953.8923,W,0.12,103.98,041117,,,A*7F
$GPVTG,103.98,T,,M,0.12,N,0.21,K,A*3E
$GPGGA,160444.000,4126.3924,N,07953.8923,W,1,04,2.04,190.5,M,-33.4,M,,*5E
$GPGSA,A,3,29,13,05,02,,,,,,,,,2.27,2.04,1.00*0C
$GPRMC,160444.000,A,4126.3924,N,07953.8923,W,0.24,106.00,041117,,,A*79
$GPVTG,106.00,T,,M,0.24,N,0.44,K,A*3C
$GPGGA,160445.000,4126.3923,N,07953.8922,W,1,04,2.04,190.5,M,-33.4,M,,*59
$GPGSA,A,3,29,13,05,02,,,,,,,,,2.27,2.04,1.00*0C
$GPGSV,4,1,13,05,77,029,29,29,61,292,26,02,50,092,29,20,46,252,19*70
$GPGSV,4,2,13,13,36,155,25,15,19,188,21,25,16,244,,06,11,102,17*73
$GPGSV,4,3,13,21,08,293,,12,06,210,,07,02,058,,26,02,331,*76
$GPGSV,4,4,13,38,,,*70
$GPRMC,160445.000,A,4126.3923,N,07953.8922,W,0.32,91.81,041117,,,A*4F
$GPVTG,91.81,T,,M,0.32,N,0.59,K,A*01
$GPGGA,160446.000,4126.3923,N,07953.8921,W,1,04,2.04,190.5,M,-33.4,M,,*59
$GPGSA,A,3,29,13,05,02,,,,,,,,,2.27,2.04,1.00*0C
$GPRMC,160446.000,A,4126.3923,N,07953.8921,W,0.32,86.76,041117,,,A*41
$GPVTG,86.76,T,,M,0.32,N,0.60,K,A*05
$GPGGA,160447.000,4126.3923,N,07953.8919,W,1,04,2.04,190.5,M,-33.4,M,,*53
$GPGSA,A,3,29,13,05,02,,,,,,,,,2.27,2.04,1.00*0C
$GPRMC,160447.000,A,4126.3923,N,07953.8919,W,0.29,77.78,041117,,,A*41
$GPVTG,77.78,T,,M,0.29,N,0.54,K,A*08
$GPGGA,160448.000,4126.3924,N,07953.8918,W,1,04,2.04,190.5,M,-33.4,M,,*5A
$GPGSA,A,3,29,13,05,02,,,,,,,,,2.27,2.04,1.00*0C
$GPRMC,160448.000,A,4126.3924,N,07953.8918,W,0.36,77.49,041117,,,A*44
$GPVTG,77.49,T,,M,0.36,N,0.66,K,A*05
$GPGGA,160449.000,4126.3924,N,07953.8917,W,1,04,2.04,190.5,M,-33.4,M,,*54
$GPGSA,A,3,29,13,05,02,,,,,,,,,2.27,2.04,1.00*0C
$GPRMC,160449.000,A,4126.3924,N,07953.8917,W,0.17,75.84,041117,,,A*4A
$GPVTG,75.84,T,,M,0.17,N,0.31,K,A*07
$GPGGA,160450.000,4126.3924,N,07953.8917,W,1,04,2.04,190.5,M,-33.4,M,,*5C
$GPGSA,A,3,29,13,05,02,,,,,,,,,2.27,2.04,1.00*0C
$GPGSV,4,1,13,05,77,029,31,29,61,292,23,02,49,093,30,20,46,252,18*7C
$GPGSV,4,2,13,13,36,155,24,15,19,188,21,25,16,244,,06,11,102,16*73
$GPGSV,4,3,13,21,08,293,,12,06,210,,07,02,058,,26,02,331,*76
$GPGSV,4,4,13,41,,,*7E
$GPRMC,160450.000,A,4126.3924,N,07953.8917,W,0.08,107.98,041117,,,A*75
$GPVTG,107.98,T,,M,0.08,N,0.16,K,A*35
$GPGGA,160451.000,4126.3924,N,07953.8916,W,1,04,2.04,190.6,M,-33.4,M,,*5F
$GPGSA,A,3,29,13,05,02,,,,,,,,,2.27,2.04,1.00*0C
$GPRMC,160451.000,A,4126.3924,N,07953.8916,W,0.12,126.92,041117,,,A*77
$GPVTG,126.92,T,,M,0.12,N,0.23,K,A*31
$GPGGA,160452.000,4126.3924,N,07953.8916,W,1,04,2.04,190.6,M,-33.4,M,,*5C
$GPGSA,A,3,29,13,05,02,,,,,,,,,2.27,2.04,1.00*0C
$GPRMC,160452.000,A,4126.3924,N,07953.8916,W,0.13,122.89,041117,,,A*7B
$GPVTG,122.89,T,,M,0.13,N,0.25,K,A*38
$GPGGA,160453.000,4126.3923,N,07953.8915,W,1,04,2.04,190.6,M,-33.4,M,,*59
$GPGSA,A,3,29,13,05,02,,,,,,,,,2.27,2.04,1.00*0C
$GPRMC,160453.000,A,4126.3923,N,07953.8915,W,0.15,135.79,041117,,,A*71
$GPVTG,135.79,T,,M,0.15,N,0.28,K,A*3A
$GPGGA,160454.000,4126.3923,N,07953.8915,W,1,04,2.04,190.6,M,-33.4,M,,*5E
$GPGSA,A,3,29,13,05,02,,,,,,,,,2.27,2.04,1.00*0C
$GPRMC,160454.000,A,4126.3923,N,07953.8915,W,0.15,190.56,041117,,,A*74
$GPVTG,190.56,T,,M,0.15,N,0.28,K,A*38
$GPGGA,160455.000,4126.3922,N,07953.8915,W,1,04,2.04,190.6,M,-33.4,M,,*5E
$GPGSA,A,3,29,13,05,02,,,,,,,,,2.27,2.04,1.00*0C
$GPGSV,4,1,13,05,76,030,31,29,61,292,24,02,49,093,30,20,46,252,17*7D
$GPGSV,4,2,13,13,36,155,24,15,19,188,22,25,16,244,,06,11,102,17*71
$GPGSV,4,3,13,21,08,293,,12,06,210,,07,02,058,,26,02,331,*76
$GPGSV,4,4,13,41,,,*7E
$GPRMC,160455.000,A,4126.3922,N,07953.8915,W,0.20,185.32,041117,,,A*74
$GPVTG,185.32,T,,M,0.20,N,0.38,K,A*39
$GPGGA,160456.000,4126.3922,N,07953.8915,W,1,04,2.04,190.6,M,-33.4,M,,*5D
$GPGSA,A,3,29,13,05,02,,,,,,,,,2.27,2.04,1.00*0C
$GPRMC,160456.000,A,4126.3922,N,07953.8915,W,0.16,212.28,041117,,,A*74
$GPVTG,212.28,T,,M,0.16,N,0.30,K,A*32
$GPGGA,160457.000,4126.3921,N,07953.8916,W,1,04,2.04,190.6,M,-33.4,M,,*5C
$GPGSA,A,3,29,13,05,02,,,,,,,,,2.27,2.04,1.00*0C
$GPRMC,160457.000,A,4126.3921,N,07953.8916,W,0.15,229.84,041117,,,A*78
$GPVTG,229.84,T,,M,0.15,N,0.28,K,A*36
$GPGGA,160458.000,4126.3921,N,07953.8916,W,1,04,2.04,190.6,M,-33.4,M,,*53
$GPGSA,A,3,29,13,05,02,,,,,,,,,2.27,2.04,1.00*0C
$GPRMC,160458.000,A,4126.3921,N,07953.8916,W,0.16,207.60,041117,,,A*72
$GPVTG,207.60,T,,M,0.16,N,0.29,K,A*32
$GPGGA,160459.000,4126.3921,N,07953.8917,W,1,04,2.04,190.6,M,-33.4,M,,*53
$GPGSA,A,3,29,13,05,02,,,,,,,,,2.27,2.04,1.00*0C
$GPRMC,160459.000,A,4126.3921,N,07953.8917,W,0.22,196.65,041117,,,A*7B
$GPVTG,196.65,T,,M,0.22,N,0.41,K,A*35
$GPGGA,160500.000,4126.3920,N,07953.8917,W,1,04,2.04,190.6,M,-33.4,M,,*5F
$GPGSA,A,3,29,13,05,02,,,,,,,,,2.27,2.04,1.00*0C
$GPGSV,4,1,13,05,76,030,31,29,61,292,23,02,49,093,31,20,46,252,16*7A
$GPGSV,4,2,13,13,36,155,23,15,19,188,21,25,16,244,,06,11,102,16*74
$GPGSV,4,3,13,21,08,293,,12,06,210,,07,02,058,,26,02,31,*76
$GPGSV,4,4,13,43,,,*7C
$GPRMC,160500.000,A,4126.3920,N,07953.8917,W,0.17,207.64,041117,,,A*7B
$GPVTG,207.64,T,,,0.17,N,0.32,K,A*3D
$GPGGA,160501.000,4126.3920,N,07953.8917,W,1,04,2.04,190.6,M,-33.4,M,,*5E
$GPGSA,A,3,29,13,05,02,,,,,,,,,2.27,2.04,1.00*0C
$GPRMC,160501.000,A,4126.3920,N,07953.8917,W,0.09,191.99,041117,,,A*7B
$GPVTG,191.99,T,,M,0.09,N,0.17,K,A*3B
$GPGGA,160502.000,4126.3920,N,07953.8917,W,1,04,2.04,190.6,M,-33.4,M,,*5D
$GPGSA,A,3,29,13,05,02,,,,,,,,,2.27,2.04,1.00*0C
$GPRMC,160502.000,A,4126.3920,N,07953.8917,W,0.21,244.78,041117,,,A*76
$GPVTG,244.78,T,,M,0.21,N,0.38,K,A*38
$GPGGA,160503.000,4126.3919,N,07953.8918,W,1,04,2.04,190.6,M,-33.4,M,,*59
$GPGSA,A,3,29,13,05,02,,,,,,,,,2.27,2.04,1.00*0C
$GPRMC,160503.000,A,4126.3919,N,07953.8918,W,0.20,250.18,041117,,,A*70
$GPVTG,250.18,T,,M,0.20,N,0.37,K,A*35
$GPGGA,160504.000,4126.3919,N,07953.8919,W,1,04,2.04,190.6,M,-33.4,M,,*5F
$GPGSA,A,3,29,13,05,02,,,,,,,,,2.27,2.04,1.00*0C
$GPRMC,160504.000,A,4126.3919,N,07953.8919,W,0.26,258.19,041117,,,A*79
$GPVTG,258.19,T,,M,0.26,N,0.48,K,A*32
$GPGGA,160505.000,4126.3919,N,07953.8920,W,1,04,2.04,190.6,M,-33.4,M,,*54
$GPGSA,A,3,29,13,05,02,,,,,,,,,2.27,2.04,1.00*0C
$GPGSV,4,1,13,05,76,030,30,29,61,292,21,02,49,093,30,20,46,252,17*79
$GPGSV,4,2,13,13,36,155,24,15,19,188,21,25,16,244,,06,11,102,17*72
$GPGSV,4,3,13,21,08,293,,12,06,210,,07,02,058,,26,02,331,*76
$GPGSV,4,4,13,45,,,*7A
$GPRMC,160505.000,A,4126.3919,N,07953.8920,W,0.26,243.64,041117,,,A*72
$GPVTG,243.64,T,,M,0.26,N,0.48,K,A*32
$GPGGA,160506.000,4126.3919,N,07953.8921,W,1,04,2.04,190.6,M,-33.4,M,,*56
$GPGSA,A,3,29,13,05,02,,,,,,,,,2.27,2.04,1.00*0C
$GPRMC,160506.000,A,4126.3919,N,07953.8921,W,0.31,239.18,041117,,,A*70
$GPVTG,239.18,T,,M,0.31,N,0.58,K,A*33
$GPGGA,160507.000,4126.3918,N,07953.8922,W,1,04,2.04,190.6,M,-33.4,M,,*55
$GPGSA,A,3,29,13,05,02,,,,,,,,,2.27,2.04,1.00*0C
$GPRMC,160507.000,A,4126.3918,N,07953.8922,W,0.35,244.88,041117,,,A*74
$GPVTG,244.88,T,,M,0.35,N,0.64,K,A*3B
$GPGGA,160508.000,4126.3918,N,07953.8923,W,1,04,2.04,190.6,M,-33.4,M,,*5B
$GPGSA,A,3,29,13,05,02,,,,,,,,,2.27,2.04,1.00*0C
$GPRMC,160508.000,A,4126.3918,N,07953.8923,W,0.48,249.69,041117,,,A*72
$GPVTG,249.69,T,,M,0.48,N,0.89,K,A*30
$GPGGA,160509.000,4126.3917,N,07953.8925,W,1,04,2.04,190.6,M,-33.4,M,,*53
$GPGSA,A,3,29,13,05,02,,,,,,,,,2.27,2.04,1.00*0C
$GPRMC,160509.000,A,4126.3917,N,07953.8925,W,0.47,236.39,041117,,,A*78
$GPVTG,236.39,T,,M,0.47,N,0.87,K,A*3C
$GPGGA,160510.000,4126.3916,N,07953.8927,W,1,04,2.04,190.6,M,-33.4,M,,*58
$GPGSA,A,3,29,13,05,02,,,,,,,,,2.27,2.04,1.00*0C
$GPGSV,4,1,13,05,76,030,28,29,61,292,19,02,49,093,29,20,46,252,17*73
$GPGSV,4,2,13,13,36,155,22,15,19,188,19,25,16,244,,06,11,102,17*7F
$GPGSV,4,3,13,21,08,293,,12,06,210,,07,02,058,,26,02,331,*76
$GPGSV,4,4,13,46,,,*79
$GPRMC,160510.000,A,4126.3916,N,07953.8927,W,0.54,233.52,041117,,,A*79
$GPVTG,233.52,T,,M,0.54,N,0.99,K,A*39
$GPGGA,160511.000,4126.3916,N,07953.8928,W,1,04,2.04,190.6,M,-33.4,M,,*56
$GPGSA,A,3,29,13,05,02,,,,,,,,,2.27,2.04,1.00*0C
$GPRMC,160511.000,A,4126.3916,N,07953.8928,W,0.56,233.70,041117,,,A*75
$GPVTG,233.70,T,,M,0.56,N,1.04,K,A*3E
$GPGGA,160512.000,4126.3915,N,07953.8930,W,1,04,2.04,190.6,M,-33.4,M,,*5F
$GPGSA,A,3,29,13,05,02,,,,,,,,,2.27,2.04,1.00*0C
$GPRMC,160512.000,A,4126.915,N,07953.8930,W,0.59,234.91,041117,,,A*7B
$GPVTG,234.91,T,,M,0.59,N,1.09,K,A*34
$GPGGA,160513.00,4126.3914,N,07953.8932,W,1,04,2.04,190.6,M,-33.4,M,,*5D
$PGSA,A,3,29,13,05,02,,,,,,,,,2.27,2.04,1.00*0C
$GPRMC,160513.000,A,4126.3914,N,07953.8932,W,0.60,241.73,041117,,,A*7D
$GPVTG,241.73,T,,M,0.60,N,1.12,K,A*3A
$GPGGA,160514.000,4126.3915,N,07953.8938,W,1,04,2.04,190.7,M,-33.4,M,,*50
$GPGSA,A,3,29,13,05,02,,,,,,,,,2.27,2.04,1.00*0C
$GPRMC,160514.000,A,4126.3915,N,07953.8938,W,0.60,249.48,041117,,,A*71
$GPVTG,249.48,T,,M,0.60,N,1.12,K,A*3A
$GPGGA,160515.000,4126.3914,N,07953.8940,W,1,04,2.04,190.7,M,-33.4,M,,*5F
$GPGSA,A,3,29,13,05,02,,,,,,,,,2.27,2.04,1.00*0C
$GPGSV,4,1,13,05,76,030,27,29,61,292,20,02,49,093,29,20,46,252,16*77
$GPGSV,4,2,13,13,36,155,20,15,19,188,19,25,16,243,,06,11,102,14*79
$GPGSV,4,3,13,21,08,293,,12,06,21007,02,058,,26,02,331,*76
$GPGSV,4,4,13,47,,,*78
$GPRMC,160515.000,A,4126.3914,N,07953.8940,W,0.53,248.39,041117,,,A*79
$GPVTG,248.39,T,,M,0.53,N,0.99,K,A*3F
$GPGGA,160516.000,4126.3916,N,07953.8939,W,1,04,2.04,190.7,M,-33.4,M,,*50
$GPGSA,A,3,29,13,05,02,,,,,,,,,2.27,2.04,1.00*0C
$GPRMC,160516.000,A,4126.3916,N,07953.8939,W,0.43,252.51,041117,,,A*72
$GPVTG,252.51,T,,M,0.43,N,0.81,K,A*32
$GPGGA,160517.000,4126.3917,N,07953.8937,W,1,04,2.04,190.7,M,-33.4,M,,*5E
$GPGSA,A,3,29,13,05,02,,,,,,,,,2.27,2.04,1.00*0C
$GPRMC,160517.000,A,4126.3917,N,07953.8937,W,0.39,249.35,041117,,,A*79
$GPVTG,249.35,T,,M,0.39,N,0.72,K,A*3B
$GPGGA,160518.000,4126.3918,N,07953.8941,W,1,04,2.04,190.7,M,-33.4,M,,*5F
$GPGSA,A,3,29,13,05,02,,,,,,,,,2.27,2.04,1.00*0C
$GPRMC,160518.000,A,4126.3918,N,07953.8941,W,0.41,249.31,041117,,,A*73
$GPVTG,249.31,T,,M,0.41,N,0.76,K,A*34
$GPGGA,160519.000,4126.3918,N,07953.8943,W,1,04,2.04,190.7,M,-33.4,M,,*5C
$GPGSA,A,3,29,13,05,02,,,,,,,,,2.27,2.04,1.00*0C
$GPRMC,160519.000,A,4126.3918,N,07953.8943,W,0.50,245.15,041117,,,A*7A
$GPVTG,245.15,T,,M,0.50,N,0.93,K,A*35
$GPGGA,160520.000,4126.3917,N,07953.8945,W,1,04,2.04,190.7,M,-33.4,M,,*5F
$GPGSA,A,3,29,13,05,02,,,,,,,,2.27,2.04,1.00*0C
$GPGSV,4,1,14,05,76,030,29,29,61,292,19,02,49,093,31,20,46,252,17*7C
$GPGSV,4,2,14,13,36,155,25,15,19,188,19,25,16,243,,06,11,102,15*7A
$GPGSV,4,3,14,21,08,293,,12,06,210,,07,02,058,,26,02,331,*71
$GPGSV,4,4,14,30,01,085,,47,,,*40
$GPRMC,160520.000,A,4126.3917,N,07953.8945,W,0.55,230.89,041117,,,A*7B
$GPVTG,230.89,T,,M,0.55,N,1.02,K,A*3E
$GPGGA,160521.000,4126.3916,N,07953.8946,W,1,04,2.04,190.7,M,-33.4,M,,*5C
$GPGSA,A,3,29,13,05,02,,,,,,,,,2.27,2.04,1.00*0C
$GPRMC,160521.000,A,4126.3916,N,07953.8946,W,0.44,234.07,041117,,,A*7A
$GPVTG,234.07,T,,M,0.44,N,0.81,K,A*36
$GPGGA,160522.000,4126.3915,N,07953.8948,W,1,04,2.04,190.7,M,-33.4,M,,*52
$GPGSA,A,3,29,13,05,02,,,,,,,,,2.27,.04,1.00*0C
$GPRMC,160522.000,A,4126.3915,N,07953.8948,W,0.31,209.89,041117,,,A*E
$GPVTG,209.89,T,,M,0.31,N,0.57,K,A*37
$GPGGA,160523.000,4126.3915,N,07953.8948,W,1,04,2.04,190.7,M,-33.4,M,,*53
$GPGSA,A,3,29,13,05,02,,,,,,,,,2.27,2.04,1.00*0C
$GPRMC,160523.000,A,4126.3915,N,07953.8948,W,0.29,197.23,041117,,,A*72
$GPVTG,197.23,T,,M,0.29,N,0.54,K,A*39
$GPGGA,160524.000,4126.3914,N,7953.8949,W,1,04,2.04,190.7,M,-33.4,M,,*54
$GPGSA,A,3,29,13,05,02,,,,,,,,,2.27,2.04,1.00*0C
$GPRMC,160524.000,A,4126.3914,N,07953.8949,W,0.30,191.90,041117,,,A*73
$GVTG,191.90,T,,M,0.30,N,0.56,K,A*3D
$GPGGA,160525.000,4126.3913,N,07953.8949,W,1,04,2.04,190.7,M,-33.4,M,,*52
$GPGSA,A,3,29,13,05,02,,,,,,,,,2.27,2.04,1.00*0C
$GPGSV,4,1,14,05,76,030,30,29,61,292,18,02,49,093,31,20,46,252,18*7A
$GPGSV,4,2,14,13,36,155,22,15,19,188,17,25,16,243,,06,11,102,17*71
$GPGSV,4,3,14,21,08,293,,12,06,210,,07,02,058,,26,02,33,*71
$GPGSV,4,4,14,30,01,085,,49,,,*4E
$GRMC,160525.000,A,4126.3913,N,07953.8949,W,0.33,190.25,041117,,,A*79
$GPVTG,190.25,T,,M,0.33,N,0.62,K,A*36
$GPGGA,160526.000,4126.3912,N,07953.8949,W,1,04,2.04,190.7,M,-33.4,M,,*50
$GPGSA,A,3,29,13,05,02,,,,,,,,,2.27,2.04,1.00*0C
$GPRMC,160526.000,A,4126.3912,N,07953.8949,W,0.40,192.49,041117,,,A*77
$GPVTG,192.49,T,,M,0.40,N,0.74,K,A*3D
$GPGGA,160527.000,4126.3911,N,07953.8950,W,1,04,2.04,190.7,M,-33.4,M,,*5A
$GPGSA,A,3,29,13,05,02,,,,,,,,,2.27,2.04,1.00*0C
$GPRMC,160527.000,A,4126.3911,N,07953.8950,W,0.41,197.20,041117,,,A*76
$GPVTG,197.20,T,,M,0.41,N,0.76,K,A*34
$GPGGA,160528.000,4126.3910,N,07953.8950,W,1,04,2.04,190.7,M,-33.4,M,,*54
$GPGSA,A,3,29,13,05,02,,,,,,,,,2.27,2.04,1.00*0C
$GPRMC,160528.000,A,4126.3910,N,07953.8950,W,0.36,186.67,041117,,,A*7B
$GPVT,186.67,T,,M,0.36,N,0.67,K,A*37
$GPGGA,160529.000,4126.3909,N,07953.8950,W,1,04,2.04,190.7,M,-33.4,M,,*5D
$GPGSA,A,3,29,13,05,02,,,,,,,,,2.27,2.04,1.00*0C
$GPRMC,160529.000,A,4126.3909,N,07953.8950,W,0.26,195.49,041117,,,A*7D
$GPVTG,195.49,T,,M,0.26,N,0.47,K,A*3A
$GPGGA,160530.000,4126.3908,N,07953.8950,W,1,04,2.04,190.7,M,-33.4,M,,*54
$GPGSA,A,3,29,13,05,02,,,,,,,,,2.27,2.04,1.00*0C
$GPGSV,,1,14,05,76,030,31,29,61,292,17,02,49,093,30,20,46,252,17*7A
$GPGSV,4,2,14,13,36,155,24,15,19,188,16,25,16,243,,06,11,102,19*78
$GPGSV,4,3,14,21,08,293,,12,06,210,,07,02,058,,26,02,331,*71
$GPGSV,4,4,14,30,01,085,,37,,,*47
$GPRMC,160530.000,A,4126.3908,N,07953.8950,W,0.22,204.11,041117,,,A*76
$GPVTG,204.11,T,,M,0.22,N,0.41,K,A*3E
$GPGGA,160531.000,4126.3908,N,07953.8951,W,1,04,2.04,190.7,M,-33.4,M,,*54
$GPGSA,A,3,29,13,05,02,,,,,,,,,2.27,2.04,1.00*0C
$GPRMC,160531.000,A,4126.3908,N,07953.8951,W,0.14,195.40,041117,,,A*7C
$GPVTG,195.40,T,,M,0.14,N,0.26,K,A*35
$GPGGA,160532.000,426.3907,N,07953.8951,W,1,04,2.04,190.7,M,-33.4,M,,*58
$GPGSA,A,3,29,13,05,02,,,,,,,,,2.27,2.04,1.00*0C
$GPRMC,160532.000,A,4126.3907,N,07953.8951,W,0.27,237.42,041117,,,A*79
$GPVTG,237.42,T,,M,0.27,N,0.51,K,A*3C
$GPGGA,160533.000,4126.3907,N,07953.8952,W,1,04,2.04,190.7,M,-33.4,M,,*5A
$GPGSA,A,3,29,13,05,02,,,,,,,,,2.27,2.04,1.00*0C
$GPRMC,160533.000,A,4126.3907,N,07953.8952,W,0.34,236.51,041117,,,A*7A
$GPVTG,236.51,T,,M,0.34,N,0.63,K,A*3C
